[
  {"id": "AL", "name": "Albania", "d": "M520,165l22,12l18-10l-4-14l-18-10l-20,6l-6,14z", "lat": 41.1533, "lon": 20.1683, "radius": 150},
  {"id": "AT", "name": "Austria", "d": "M495,138l22,12l18-10l-4-14l-18-10l-20,6l-6,14z", "lat": 47.5162, "lon": 14.5501, "radius": 200},
  {"id": "BE", "name": "Belgium", "d": "M461,130l12,8l10-6l-2-10l-10-6l-12,4l-6,8z", "lat": 50.8503, "lon": 4.3517, "radius": 150},
  {"id": "BG", "name": "Bulgaria", "d": "M531,155l25,14l20-12l-4-16l-20-12l-22,8l-6,16z", "lat": 42.7339, "lon": 25.4858, "radius": 200},
  {"id": "CH", "name": "Switzerland", "d": "M476,140l20,12l16-10l-4-12l-16-10l-18,6l-6,12z", "lat": 46.8182, "lon": 8.2275, "radius": 150},
  {"id": "CZ", "name": "Czech Republic", "d": "M498,134l18,10l15-8l-3-12l-15-8l-16,6l-5,10z", "lat": 49.8175, "lon": 15.473, "radius": 200},
  {"id": "DE", "name": "Germany", "d": "M483,128l35,20l30-18l-6-20l-30-16l-32,10l-8,18z", "lat": 51.1657, "lon": 10.4515, "radius": 300},
  {"id": "DK", "name": "Denmark", "d": "M483,120l15,8l12-7l-2-10l-12-7l-14,5l-4,9z", "lat": 56.2639, "lon": 9.5018, "radius": 150},
  {"id": "EE", "name": "Estonia", "d": "M532,98l18,10l15-8l-3-12l-15-8l-16,6l-5,10z", "lat": 58.5953, "lon": 25.0136, "radius": 150},
  {"id": "ES", "name": "Spain", "d": "M428,155l35,20l30-25l-8-20l-30-18l-32,12l-8,22z", "lat": 40.4637, "lon": -3.7492, "radius": 400},
  {"id": "FI", "name": "Finland", "d": "M527,70l40,25l35-22l-6-25l-35-20l-38,15l-8,22z", "lat": 61.9241, "lon": 25.7482, "radius": 250},
  {"id": "FR", "name": "France", "d": "M454,140l30,18l25-15l-6-18l-25-15l-28,10l-8,16z", "lat": 46.2276, "lon": 2.2137, "radius": 400},
  {"id": "GB", "name": "United Kingdom", "d": "M448,85l25,15l20-12l-6-18l-20-12l-22,8l-8,15z", "lat": 55.3781, "lon": -3.436, "radius": 300},
  {"id": "GR", "name": "Greece", "d": "M536,170l35,20l28-22l-6-22l-28-18l-32,12l-8,24z", "lat": 39.0742, "lon": 21.8243, "radius": 200},
  {"id": "HR", "name": "Croatia", "d": "M506,150l20,11l16-9l-3-13l-16-9l-18,7l-5,11z", "lat": 45.1, "lon": 15.2, "radius": 150},
  {"id": "HU", "name": "Hungary", "d": "M514,140l25,14l20-12l-4-16l-20-12l-22,8l-6,16z", "lat": 47.1625, "lon": 19.5033, "radius": 200},
  {"id": "IE", "name": "Ireland", "d": "M438,100l15,10l12-6l-4-12l-12-8l-14,4l-6,10z", "lat": 53.1424, "lon": -7.6921, "radius": 200},
  {"id": "IT", "name": "Italy", "d": "M495,155l50,28l40-30l-8-28l-40-25l-45,18l-10,28z", "lat": 41.8719, "lon": 12.5674, "radius": 350},
  {"id": "LT", "name": "Lithuania", "d": "M531,110l18,10l15-8l-3-12l-15-8l-16,6l-5,10z", "lat": 55.1694, "lon": 23.8813, "radius": 150},
  {"id": "LU", "name": "Luxembourg", "d": "M467,135l10,6l8-5l-2-8l-8-5l-9,3l-3,7z", "lat": 49.8153, "lon": 6.1296, "radius": 80},
  {"id": "LV", "name": "Latvia", "d": "M533,105l20,11l16-9l-3-13l-16-9l-18,7l-5,11z", "lat": 56.8796, "lon": 24.6032, "radius": 150},
  {"id": "MC", "name": "Monaco", "d": "M470,148l8,5l6-4l-1-6l-6-4l-7,2l-2,5z", "lat": 43.75, "lon": 7.42, "radius": 50},
  {"id": "ME", "name": "Montenegro", "d": "M516,160l15,8l12-7l-2-10l-12-7l-14,5l-4,9z", "lat": 42.7087, "lon": 19.2404, "radius": 100},
  {"id": "MK", "name": "North Macedonia", "d": "M522,158l18,10l15-8l-3-12l-15-8l-16,6l-5,10z", "lat": 41.6086, "lon": 21.7453, "radius": 120},
  {"id": "MT", "name": "Malta", "d": "M498,162l10,6l8-5l-1-7l-8-4l-9,3l-2,5z", "lat": 35.9375, "lon": 14.3754, "radius": 80},
  {"id": "NL", "name": "Netherlands", "d": "M469,128l15,8l12-8l-2-10l-12-6l-14,4l-4,10z", "lat": 52.1326, "lon": 5.2913, "radius": 200},
  {"id": "NO", "name": "Norway", "d": "M494,65l40,25l35-22l-6-25l-35-20l-38,15l-8,22z", "lat": 60.472, "lon": 8.4689, "radius": 300},
  {"id": "PL", "name": "Poland", "d": "M516,125l30,16l25-14l-5-18l-25-14l-28,10l-6,16z", "lat": 51.9194, "lon": 19.1451, "radius": 300},
  {"id": "PT", "name": "Portugal", "d": "M422,158l18,12l15-10l-4-14l-15-10l-16,6l-6,12z", "lat": 39.3999, "lon": -8.2245, "radius": 200},
  {"id": "RO", "name": "Romania", "d": "M530,145l35,20l30-18l-6-22l-30-16l-32,12l-6,20z", "lat": 45.9432, "lon": 24.9668, "radius": 250},
  {"id": "RS", "name": "Serbia", "d": "M516,152l25,14l20-12l-4-16l-20-12l-22,8l-6,16z", "lat": 44.0165, "lon": 21.0059, "radius": 150},
  {"id": "SE", "name": "Sweden", "d": "M507,78l35,22l30-18l-5-25l-30-18l-33,14l-7,22z", "lat": 60.1282, "lon": 18.6435, "radius": 300},
  {"id": "SI", "name": "Slovenia", "d": "M500,145l15,8l12-7l-2-10l-12-7l-14,5l-4,9z", "lat": 46.1512, "lon": 15.4945, "radius": 120},
  {"id": "SK", "name": "Slovakia", "d": "M511,136l18,10l15-8l-3-12l-15-8l-16,6l-5,10z", "lat": 48.669, "lon": 19.699, "radius": 150},
  {"id": "SM", "name": "San Marino", "d": "M492,155l8,5l6-4l-1-6l-6-4l-7,2l-2,5z", "lat": 43.9424, "lon": 12.4578, "radius": 50},
  {"id": "TR", "name": "Turkey", "d": "M550,155l60,35l50-35l-10-40l-50-30l-55,22l-10,35z", "lat": 38.9637, "lon": 35.2433, "radius": 400},
  {"id": "UA", "name": "Ukraine", "d": "M540,130l45,25l38-28l-8-28l-38-22l-42,15l-8,26z", "lat": 48.3794, "lon": 31.1656, "radius": 300},
  {"id": "VA", "name": "Vatican City", "d": "M494,158l6,4l5-3l-1-4l-5-3l-5,2l-1,3z", "lat": 41.9029, "lon": 12.4534, "radius": 50},
  {"id": "IS", "name": "Iceland", "d": "M416,58l12,8l10-6l2-10l-10-6l-12,4l-6,8z", "lat": 64.9631, "lon": -19.0208, "radius": 150},
  {"id": "AG", "name": "Antigua and Barbuda", "d": "M265,185l8,5l6-4l-1-6l-6-4l-7,2l-2,5z", "lat": 17.0608, "lon": -61.7964, "radius": 100},
  {"id": "BS", "name": "Bahamas", "d": "M235,175l25,15l20-12l-4-18l-20-12l-22,8l-8,15z", "lat": 25.0343, "lon": -77.3963, "radius": 200},
  {"id": "BB", "name": "Barbados", "d": "M275,190l10,6l8-5l-1-7l-8-5l-9,3l-2,6z", "lat": 13.1939, "lon": -59.5432, "radius": 80},
  {"id": "BM", "name": "Bermuda", "d": "M245,150l12,7l10-5l-2-9l-10-6l-11,4l-3,7z", "lat": 32.3078, "lon": -64.7505, "radius": 100},
  {"id": "CA", "name": "Canada", "d": "M195,45l80,45l70-40l-12-50l-70-40l-78,28l-10,42z", "lat": 56.1304, "lon": -106.3468, "radius": 800},
  {"id": "CR", "name": "Costa Rica", "d": "M205,215l18,10l15-8l-3-12l-15-8l-16,6l-5,10z", "lat": 9.7489, "lon": -83.7534, "radius": 200},
  {"id": "CU", "name": "Cuba", "d": "M220,175l40,22l32-20l-6-26l-32-18l-36,14l-6,20z", "lat": 21.5218, "lon": -77.7812, "radius": 250},
  {"id": "DM", "name": "Dominica", "d": "M268,190l8,5l6-4l-1-6l-6-4l-7,2l-2,5z", "lat": 15.415, "lon": -61.371, "radius": 80},
  {"id": "DO", "name": "Dominican Republic", "d": "M255,190l25,14l20-12l-4-16l-20-12l-22,8l-6,14z", "lat": 18.7357, "lon": -70.1627, "radius": 200},
  {"id": "GD", "name": "Grenada", "d": "M272,195l8,5l6-4l-1-6l-6-4l-7,2l-2,5z", "lat": 12.2628, "lon": -61.6041, "radius": 80},
  {"id": "GT", "name": "Guatemala", "d": "M185,205l30,17l25-14l-5-20l-25-14l-27,10l-5,17z", "lat": 15.7835, "lon": -90.2308, "radius": 200},
  {"id": "HN", "name": "Honduras", "d": "M205,210l25,14l20-12l-4-16l-20-12l-22,8l-6,14z", "lat": 15.1999, "lon": -86.2419, "radius": 150},
  {"id": "JM", "name": "Jamaica", "d": "M225,185l15,9l12-7l-2-11l-12-7l-14,5l-4,9z", "lat": 18.1096, "lon": -77.2975, "radius": 150},
  {"id": "KN", "name": "Saint Kitts and Nevis", "d": "M265,185l8,5l6-4l-1-6l-6-4l-7,2l-2,5z", "lat": 17.3578, "lon": -62.7829, "radius": 80},
  {"id": "KY", "name": "Cayman Islands", "d": "M210,180l8,5l6-4l-1-6l-6-4l-7,2l-2,5z", "lat": 19.5135, "lon": -80.567, "radius": 150},
  {"id": "LC", "name": "Saint Lucia", "d": "M270,192l8,5l6-4l-1-6l-6-4l-7,2l-2,5z", "lat": 13.9094, "lon": -60.9789, "radius": 80},
  {"id": "MQ", "name": "Martinique", "d": "M275,195l8,5l6-4l-1-6l-6-4l-7,2l-2,5z", "lat": 14.6415, "lon": -61.0242, "radius": 80},
  {"id": "MX", "name": "Mexico", "d": "M155,165l50,30l42-28l-8-32l-42-25l-46,18l-8,28z", "lat": 23.6345, "lon": -102.5528, "radius": 500},
  {"id": "NI", "name": "Nicaragua", "d": "M205,215l22,13l18-11l-4-15l-18-10l-20,7l-4,14z", "lat": 12.1364, "lon": -86.2514, "radius": 150},
  {"id": "PA", "name": "Panama", "d": "M210,225l25,14l20-12l-4-16l-20-12l-22,8l-6,14z", "lat": 8.538, "lon": -80.7821, "radius": 200},
  {"id": "PR", "name": "Puerto Rico", "d": "M255,185l18,10l15-8l-3-12l-15-8l-16,6l-5,10z", "lat": 18.2208, "lon": -66.5901, "radius": 150},
  {"id": "SV", "name": "El Salvador", "d": "M190,210l18,10l15-8l-3-12l-15-8l-16,6l-5,10z", "lat": 13.7942, "lon": -88.8965, "radius": 150},
  {"id": "TT", "name": "Trinidad and Tobago", "d": "M275,200l15,9l12-7l-2-11l-12-7l-14,5l-4,9z", "lat": 10.6918, "lon": -61.2225, "radius": 150},
  {"id": "US", "name": "United States", "d": "M180,100l90,50l75-45l-12-55l-75-45l-84,30l-12,45z", "lat": 37.0902, "lon": -95.7129, "radius": 800},
  {"id": "VC", "name": "Saint Vincent and the Grenadines", "d": "M270,193l8,5l6-4l-1-6l-6-4l-7,2l-2,5z", "lat": 12.9843, "lon": -61.2872, "radius": 80},
  {"id": "VG", "name": "British Virgin Islands", "d": "M258,182l8,5l6-4l-1-6l-6-4l-7,2l-2,5z", "lat": 18.4207, "lon": -64.6399, "radius": 100},
  {"id": "VI", "name": "US Virgin Islands", "d": "M260,184l8,5l6-4l-1-6l-6-4l-7,2l-2,5z", "lat": 18.3358, "lon": -64.8963, "radius": 100},
  {"id": "AR", "name": "Argentina", "d": "M265,340l60,35l50-30l-10-38l-50-30l-55,20l-8,32z", "lat": -38.4161, "lon": -63.6167, "radius": 600},
  {"id": "BO", "name": "Bolivia", "d": "M250,300l45,26l38-22l-7-28l-38-22l-42,16l-8,24z", "lat": -16.2902, "lon": -63.5887, "radius": 300},
  {"id": "BR", "name": "Brazil", "d": "M280,280l80,45l65-40l-12-50l-65-40l-72,25l-10,40z", "lat": -14.235, "lon": -51.9253, "radius": 800},
  {"id": "CL", "name": "Chile", "d": "M240,350l50,30l42-28l-8-32l-42-25l-46,18l-8,28z", "lat": -35.6751, "lon": -71.543, "radius": 400},
  {"id": "CO", "name": "Colombia", "d": "M235,225l50,30l42-28l-8-32l-42-25l-46,18l-8,28z", "lat": 4.5709, "lon": -74.2973, "radius": 400},
  {"id": "EC", "name": "Ecuador", "d": "M210,250l30,17l25-14l-5-20l-25-14l-27,10l-5,17z", "lat": -1.8312, "lon": -78.1834, "radius": 200},
  {"id": "GY", "name": "Guyana", "d": "M265,245l30,17l25-14l-5-20l-25-14l-27,10l-5,17z", "lat": 4.8604, "lon": -58.9302, "radius": 200},
  {"id": "PY", "name": "Paraguay", "d": "M280,320l40,22l32-18l-6-26l-32-18l-36,12l-6,22z", "lat": -23.4425, "lon": -58.4438, "radius": 200},
  {"id": "PE", "name": "Peru", "d": "M220,280l40,25l35-22l-6-28l-35-20l-38,15l-8,22z", "lat": -9.19, "lon": -75.0152, "radius": 500},
  {"id": "SR", "name": "Suriname", "d": "M265,235l25,14l20-12l-4-16l-20-12l-22,8l-6,14z", "lat": 3.9193, "lon": -56.0278, "radius": 200},
  {"id": "UY", "name": "Uruguay", "d": "M285,345l30,17l25-14l-5-20l-25-14l-27,10l-5,17z", "lat": -32.5228, "lon": -55.7658, "radius": 200},
  {"id": "VE", "name": "Venezuela", "d": "M250,230l55,32l45-28l-8-35l-45-28l-50,18l-10,30z", "lat": 6.4238, "lon": -66.5897, "radius": 400},
  {"id": "AE", "name": "United Arab Emirates", "d": "M605,205l25,14l20-12l-4-16l-20-12l-22,8l-6,14z", "lat": 23.4241, "lon": 53.8478, "radius": 200},
  {"id": "AF", "name": "Afghanistan", "d": "M635,165l50,28l42-24l-8-32l-42-24l-46,18l-8,28z", "lat": 33.9391, "lon": 67.71, "radius": 300},
  {"id": "AM", "name": "Armenia", "d": "M585,155l20,11l16-9l-3-13l-16-9l-18,7l-5,11z", "lat": 40.0691, "lon": 45.0382, "radius": 150},
  {"id": "AZ", "name": "Azerbaijan", "d": "M590,145l35,20l30-18l-6-22l-30-16l-32,12l-6,18z", "lat": 40.1431, "lon": 47.5769, "radius": 200},
  {"id": "BD", "name": "Bangladesh", "d": "M680,190l40,22l32-20l-6-26l-32-18l-36,14l-6,20z", "lat": 23.685, "lon": 90.3563, "radius": 250},
  {"id": "BH", "name": "Bahrain", "d": "M600,200l10,6l8-5l-1-7l-8-5l-9,3l-2,6z", "lat": 26.0667, "lon": 50.5577, "radius": 100},
  {"id": "BN", "name": "Brunei", "d": "M750,245l12,7l10-5l-2-9l-10-6l-11,4l-3,7z", "lat": 4.5353, "lon": 114.7277, "radius": 100},
  {"id": "BT", "name": "Bhutan", "d": "M695,185l20,11l16-9l-3-13l-16-9l-18,7l-5,11z", "lat": 27.5142, "lon": 90.4336, "radius": 150},
  {"id": "CN", "name": "China", "d": "M680,130l100,55l85-50l-15-60l-85-50l-92,32l-12,50z", "lat": 35.8617, "lon": 104.1954, "radius": 800},
  {"id": "GE", "name": "Georgia", "d": "M580,145l25,14l20-12l-4-16l-20-12l-22,8l-6,14z", "lat": 42.3154, "lon": 43.3569, "radius": 150},
  {"id": "HK", "name": "Hong Kong", "d": "M760,195l8,5l6-4l-1-6l-6-4l-7,2l-2,5z", "lat": 22.3193, "lon": 114.1694, "radius": 100},
  {"id": "ID", "name": "Indonesia", "d": "M750,275l100,55l85-50l-15-60l-85-50l-92,32l-12,50z", "lat": -0.7893, "lon": 113.9213, "radius": 600},
  {"id": "IL", "name": "Israel", "d": "M555,185l30,17l25-14l-5-20l-25-14l-27,10l-5,17z", "lat": 31.0461, "lon": 34.8516, "radius": 200},
  {"id": "IN", "name": "India", "d": "M655,180l80,45l65-40l-12-50l-65-40l-72,25l-10,40z", "lat": 20.5937, "lon": 78.9629, "radius": 700},
  {"id": "IQ", "name": "Iraq", "d": "M580,180l35,20l30-18l-6-22l-30-16l-32,12l-6,18z", "lat": 33.3152, "lon": 44.3661, "radius": 300},
  {"id": "IR", "name": "Iran", "d": "M590,170l55,32l45-28l-8-35l-45-28l-50,18l-10,30z", "lat": 32.4279, "lon": 53.688, "radius": 500},
  {"id": "JO", "name": "Jordan", "d": "M565,190l25,14l20-12l-4-16l-20-12l-22,8l-6,14z", "lat": 30.5852, "lon": 36.2384, "radius": 200},
  {"id": "JP", "name": "Japan", "d": "M830,125l70,40l58-35l-10-45l-58-35l-65,25l-8,35z", "lat": 36.2048, "lon": 138.2529, "radius": 400},
  {"id": "KG", "name": "Kyrgyzstan", "d": "M645,120l30,17l25-14l-5-20l-25-14l-27,10l-5,17z", "lat": 41.2044, "lon": 74.7661, "radius": 150},
  {"id": "KH", "name": "Cambodia", "d": "M730,210l35,20l30-18l-6-22l-30-16l-32,12l-6,18z", "lat": 12.5657, "lon": 104.991, "radius": 200},
  {"id": "KP", "name": "North Korea", "d": "M795,135l20,12l16-10l-3-14l-16-10l-18,6l-5,14z", "lat": 40.3399, "lon": 127.5101, "radius": 200},
  {"id": "KR", "name": "South Korea", "d": "M800,148l25,14l20-12l-4-16l-20-12l-22,8l-6,14z", "lat": 35.9078, "lon": 127.7669, "radius": 200},
  {"id": "KW", "name": "Kuwait", "d": "M595,192l15,9l12-7l-2-11l-12-7l-14,5l-4,9z", "lat": 29.3117, "lon": 47.4818, "radius": 150},
  {"id": "KZ", "name": "Kazakhstan", "d": "M600,105l80,45l65-40l-12-50l-65-40l-72,25l-10,40z", "lat": 48.0196, "lon": 66.9237, "radius": 500},
  {"id": "LA", "name": "Laos", "d": "M720,200l40,22l32-20l-6-26l-32-18l-36,14l-6,20z", "lat": 19.8563, "lon": 102.4955, "radius": 200},
  {"id": "LB", "name": "Lebanon", "d": "M560,182l15,9l12-7l-2-11l-12-7l-14,5l-4,9z", "lat": 33.8547, "lon": 35.8623, "radius": 100},
  {"id": "LK", "name": "Sri Lanka", "d": "M675,225l25,14l20-12l-4-16l-20-12l-22,8l-6,14z", "lat": 7.8731, "lon": 80.7718, "radius": 150},
  {"id": "MM", "name": "Myanmar", "d": "M705,195l60,35l50-30l-10-38l-50-30l-55,20l-8,32z", "lat": 21.9162, "lon": 95.956, "radius": 400},
  {"id": "MN", "name": "Mongolia", "d": "M720,115l70,40l58-35l-10-45l-58-35l-65,25l-8,35z", "lat": 46.8625, "lon": 103.8467, "radius": 400},
  {"id": "MO", "name": "Macao", "d": "M760,192l8,5l6-4l-1-6l-6-4l-7,2l-2,5z", "lat": 22.1987, "lon": 113.5439, "radius": 80},
  {"id": "MV", "name": "Maldives", "d": "M665,220l12,7l10-5l-2-9l-10-6l-11,4l-3,7z", "lat": 3.2028, "lon": 73.2207, "radius": 100},
  {"id": "MY", "name": "Malaysia", "d": "M725,250l60,35l50-30l-10-38l-50-30l-55,20l-8,32z", "lat": 4.2105, "lon": 101.9758, "radius": 300},
  {"id": "NP", "name": "Nepal", "d": "M685,175l35,20l30-18l-6-22l-30-16l-32,12l-6,18z", "lat": 28.3949, "lon": 84.124, "radius": 200},
  {"id": "OM", "name": "Oman", "d": "M615,215l40,22l32-20l-6-26l-32-18l-36,14l-6,20z", "lat": 21.4735, "lon": 55.9754, "radius": 300},
  {"id": "PH", "name": "Philippines", "d": "M790,225l60,35l50-30l-10-38l-50-30l-55,20l-8,32z", "lat": 12.8797, "lon": 121.774, "radius": 400},
  {"id": "PK", "name": "Pakistan", "d": "M620,165l55,32l45-28l-8-35l-45-28l-50,18l-10,30z", "lat": 30.3753, "lon": 69.3451, "radius": 400},
  {"id": "PS", "name": "Palestine", "d": "M555,188l20,11l16-9l-3-13l-16-9l-18,7l-5,11z", "lat": 31.9522, "lon": 35.2332, "radius": 100},
  {"id": "QA", "name": "Qatar", "d": "M605,200l12,7l10-5l-2-9l-10-6l-11,4l-3,7z", "lat": 25.3548, "lon": 51.1839, "radius": 150},
  {"id": "SA", "name": "Saudi Arabia", "d": "M570,205l60,35l50-32l-10-38l-50-28l-55,20l-8,32z", "lat": 23.8859, "lon": 45.0792, "radius": 600},
  {"id": "SG", "name": "Singapore", "d": "M735,248l8,5l6-4l-1-6l-6-4l-7,2l-2,5z", "lat": 1.3521, "lon": 103.8198, "radius": 80},
  {"id": "SY", "name": "Syria", "d": "M565,175l35,20l30-18l-6-22l-30-16l-32,12l-6,18z", "lat": 34.8021, "lon": 38.9968, "radius": 250},
  {"id": "TH", "name": "Thailand", "d": "M730,225l45,26l38-22l-7-28l-38-22l-42,16l-8,24z", "lat": 15.87, "lon": 100.9925, "radius": 400},
  {"id": "TJ", "name": "Tajikistan", "d": "M640,130l35,20l30-18l-6-22l-30-16l-32,12l-6,18z", "lat": 38.861, "lon": 71.2761, "radius": 200},
  {"id": "TM", "name": "Turkmenistan", "d": "M600,135l45,26l38-22l-7-28l-38-22l-42,16l-8,24z", "lat": 40.1423, "lon": 59.1791, "radius": 300},
  {"id": "TW", "name": "Taiwan", "d": "M795,185l25,14l20-12l-4-16l-20-12l-22,8l-6,14z", "lat": 23.6978, "lon": 120.9605, "radius": 200},
  {"id": "UZ", "name": "Uzbekistan", "d": "M615,125l45,26l38-22l-7-28l-38-22l-42,16l-8,24z", "lat": 41.3775, "lon": 64.5853, "radius": 300},
  {"id": "VN", "name": "Vietnam", "d": "M760,210l55,32l45-28l-8-35l-45-28l-50,18l-10,30z", "lat": 14.0583, "lon": 108.2772, "radius": 400},
  {"id": "YE", "name": "Yemen", "d": "M575,225l45,26l38-22l-7-28l-38-22l-42,16l-8,24z", "lat": 15.5527, "lon": 48.5164, "radius": 300},
  {"id": "AO", "name": "Angola", "d": "M530,310l55,32l45-28l-8-35l-45-28l-50,18l-10,30z", "lat": -11.2027, "lon": 17.8739, "radius": 400},
  {"id": "BF", "name": "Burkina Faso", "d": "M500,255l40,22l32-20l-6-26l-32-18l-36,14l-6,20z", "lat": 12.2383, "lon": -1.5616, "radius": 250},
  {"id": "BI", "name": "Burundi", "d": "M550,300l18,10l15-8l-3-12l-15-8l-16,6l-5,10z", "lat": -3.3731, "lon": 29.9189, "radius": 150},
  {"id": "BJ", "name": "Benin", "d": "M515,250l30,17l25-14l-5-20l-25-14l-27,10l-5,17z", "lat": 9.3077, "lon": 2.3158, "radius": 200},
  {"id": "BW", "name": "Botswana", "d": "M550,345l45,26l38-22l-7-28l-38-22l-42,16l-8,24z", "lat": -22.3285, "lon": 24.6849, "radius": 300},
  {"id": "CD", "name": "DR Congo", "d": "M545,295l70,40l58-35l-10-45l-58-35l-65,25l-8,35z", "lat": -4.0383, "lon": 21.7587, "radius": 500},
  {"id": "CF", "name": "Central African Republic", "d": "M540,270l50,28l42-24l-8-32l-42-24l-46,18l-8,28z", "lat": 6.6111, "lon": 20.9394, "radius": 300},
  {"id": "CG", "name": "Republic of the Congo", "d": "M520,305l35,20l30-18l-6-22l-30-16l-32,12l-6,18z", "lat": -0.228, "lon": 15.8277, "radius": 250},
  {"id": "CI", "name": "Ivory Coast", "d": "M490,255l45,26l38-22l-7-28l-38-22l-42,16l-8,24z", "lat": 7.54, "lon": -5.5471, "radius": 300},
  {"id": "CM", "name": "Cameroon", "d": "M525,270l50,28l42-24l-8-32l-42-24l-46,18l-8,28z", "lat": 7.3697, "lon": 12.3547, "radius": 300},
  {"id": "CV", "name": "Cape Verde", "d": "M435,225l15,9l12-7l-2-11l-12-7l-14,5l-4,9z", "lat": 16.5388, "lon": -24.0132, "radius": 150},
  {"id": "DJ", "name": "Djibouti", "d": "M580,255l15,9l12-7l-2-11l-12-7l-14,5l-4,9z", "lat": 11.8251, "lon": 42.5903, "radius": 150},
  {"id": "DZ", "name": "Algeria", "d": "M480,180l80,45l65-40l-12-50l-65-40l-72,25l-10,40z", "lat": 28.0339, "lon": 1.6596, "radius": 600},
  {"id": "EG", "name": "Egypt", "d": "M545,190l45,26l38-22l-7-28l-38-22l-42,16l-8,24z", "lat": 26.8206, "lon": 30.8025, "radius": 400},
  {"id": "ER", "name": "Eritrea", "d": "M565,250l30,17l25-14l-5-20l-25-14l-27,10l-5,17z", "lat": 15.1794, "lon": 39.7823, "radius": 200},
  {"id": "ET", "name": "Ethiopia", "d": "M565,270l65,38l55-32l-10-42l-55-30l-60,22l-10,35z", "lat": 9.145, "lon": 40.4897, "radius": 500},
  {"id": "GA", "name": "Gabon", "d": "M515,300l30,17l25-14l-5-20l-25-14l-27,10l-5,17z", "lat": -0.8037, "lon": 11.6094, "radius": 250},
  {"id": "GH", "name": "Ghana", "d": "M505,258l35,20l30-18l-6-22l-30-16l-32,12l-6,18z", "lat": 7.9465, "lon": -1.0232, "radius": 250},
  {"id": "GN", "name": "Guinea", "d": "M480,250l40,22l32-20l-6-26l-32-18l-36,14l-6,20z", "lat": 9.9456, "lon": -9.6966, "radius": 250},
  {"id": "GM", "name": "Gambia", "d": "M460,245l25,14l20-12l-4-16l-20-12l-22,8l-6,14z", "lat": 13.4432, "lon": -15.3101, "radius": 100},
  {"id": "GW", "name": "Guinea-Bissau", "d": "M470,248l20,11l16-9l-3-13l-16-9l-18,7l-5,11z", "lat": 11.8037, "lon": -15.1804, "radius": 150},
  {"id": "KE", "name": "Kenya", "d": "M565,290l45,26l38-22l-7-28l-38-22l-42,16l-8,24z", "lat": -0.0236, "lon": 37.9062, "radius": 350},
  {"id": "KM", "name": "Comoros", "d": "M575,315l12,7l10-5l-2-9l-10-6l-11,4l-3,7z", "lat": -11.8751, "lon": 43.8722, "radius": 100},
  {"id": "LR", "name": "Liberia", "d": "M485,260l30,17l25-14l-5-20l-25-14l-27,10l-5,17z", "lat": 6.4281, "lon": -9.4295, "radius": 200},
  {"id": "LS", "name": "Lesotho", "d": "M555,365l20,11l16-9l-3-13l-16-9l-18,7l-5,11z", "lat": -29.6099, "lon": 28.2336, "radius": 150},
  {"id": "LY", "name": "Libya", "d": "M520,175l80,45l65-40l-12-50l-65-40l-72,25l-10,40z", "lat": 26.3351, "lon": 17.2283, "radius": 500},
  {"id": "MA", "name": "Morocco", "d": "M455,165l55,32l45-28l-8-35l-45-28l-50,18l-10,30z", "lat": 31.7917, "lon": -7.0926, "radius": 400},
  {"id": "MG", "name": "Madagascar", "d": "M590,340l70,40l58-35l-10-45l-58-35l-65,25l-8,35z", "lat": -18.7669, "lon": 46.8691, "radius": 400},
  {"id": "ML", "name": "Mali", "d": "M490,230l70,40l58-35l-10-45l-58-35l-65,25l-8,35z", "lat": 17.5707, "lon": -3.9962, "radius": 500},
  {"id": "MR", "name": "Mauritania", "d": "M465,215l60,35l50-30l-10-38l-50-30l-55,20l-8,32z", "lat": 21.0079, "lon": -10.9408, "radius": 400},
  {"id": "MU", "name": "Mauritius", "d": "M620,340l15,9l12-7l-2-11l-12-7l-14,5l-4,9z", "lat": -20.3484, "lon": 57.5522, "radius": 150},
  {"id": "MW", "name": "Malawi", "d": "M560,325l30,17l25-14l-5-20l-25-14l-27,10l-5,17z", "lat": -13.2543, "lon": 34.3015, "radius": 200},
  {"id": "MZ", "name": "Mozambique", "d": "M575,335l70,40l58-35l-10-45l-58-35l-65,25l-8,35z", "lat": -18.6657, "lon": 35.5295, "radius": 400},
  {"id": "NA", "name": "Namibia", "d": "M535,355l45,26l38-22l-7-28l-38-22l-42,16l-8,24z", "lat": -22.9576, "lon": 18.4904, "radius": 350},
  {"id": "NE", "name": "Niger", "d": "M520,235l55,32l45-28l-8-35l-45-28l-50,18l-10,30z", "lat": 17.6078, "lon": 8.0817, "radius": 400},
  {"id": "NG", "name": "Nigeria", "d": "M520,245l40,25l35-22l-6-28l-35-20l-38,15l-8,22z", "lat": 9.082, "lon": 8.6753, "radius": 500},
  {"id": "RW", "name": "Rwanda", "d": "M548,298l18,10l15-8l-3-12l-15-8l-16,6l-5,10z", "lat": -1.9403, "lon": 29.8739, "radius": 150},
  {"id": "SC", "name": "Seychelles", "d": "M605,310l12,7l10-5l-2-9l-10-6l-11,4l-3,7z", "lat": -4.6796, "lon": 55.492, "radius": 100},
  {"id": "SD", "name": "Sudan", "d": "M555,225l70,40l58-35l-10-45l-58-35l-65,25l-8,35z", "lat": 12.8628, "lon": 30.2176, "radius": 500},
  {"id": "SL", "name": "Sierra Leone", "d": "M475,255l25,14l20-12l-4-16l-20-12l-22,8l-6,14z", "lat": 8.4606, "lon": -11.7799, "radius": 200},
  {"id": "SN", "name": "Senegal", "d": "M460,240l40,22l32-20l-6-26l-32-18l-36,14l-6,20z", "lat": 14.4974, "lon": -14.4524, "radius": 250},
  {"id": "SO", "name": "Somalia", "d": "M595,265l70,40l58-35l-10-45l-58-35l-65,25l-8,35z", "lat": 5.1521, "lon": 46.1996, "radius": 350},
  {"id": "SS", "name": "South Sudan", "d": "M550,275l45,26l38-22l-7-28l-38-22l-42,16l-8,24z", "lat": 6.877, "lon": 31.307, "radius": 300},
  {"id": "SZ", "name": "Eswatini", "d": "M565,360l18,10l15-8l-3-12l-15-8l-16,6l-5,10z", "lat": -26.3054, "lon": 31.5085, "radius": 150},
  {"id": "TD", "name": "Chad", "d": "M535,240l60,35l50-30l-10-38l-50-30l-55,20l-8,32z", "lat": 15.4542, "lon": 18.7322, "radius": 500},
  {"id": "TG", "name": "Togo", "d": "M510,255l18,10l15-8l-3-12l-15-8l-16,6l-5,10z", "lat": 8.6195, "lon": 0.8248, "radius": 150},
  {"id": "TN", "name": "Tunisia", "d": "M500,165l40,22l32-20l-6-26l-32-18l-36,14l-6,20z", "lat": 33.8869, "lon": 9.5375, "radius": 300},
  {"id": "TZ", "name": "Tanzania", "d": "M560,310l65,38l55-32l-10-42l-55-30l-60,22l-10,35z", "lat": -6.369, "lon": 34.8888, "radius": 500},
  {"id": "UG", "name": "Uganda", "d": "M555,290l30,17l25-14l-5-20l-25-14l-27,10l-5,17z", "lat": 1.3733, "lon": 32.2903, "radius": 250},
  {"id": "ZA", "name": "South Africa", "d": "M550,365l60,35l50-30l-10-38l-50-30l-55,20l-8,32z", "lat": -30.5595, "lon": 22.9375, "radius": 500},
  {"id": "ZM", "name": "Zambia", "d": "M555,335l50,28l42-24l-8-32l-42-24l-46,18l-8,28z", "lat": -13.1339, "lon": 27.8493, "radius": 400},
  {"id": "ZW", "name": "Zimbabwe", "d": "M560,355l40,22l32-20l-6-26l-32-18l-36,14l-6,20z", "lat": -19.0154, "lon": 29.1548, "radius": 250},
  {"id": "AU", "name": "Australia", "d": "M780,360l100,55l85-50l-15-60l-85-50l-92,32l-12,50z", "lat": -25.2744, "lon": 133.7751, "radius": 800},
  {"id": "FJ", "name": "Fiji", "d": "M920,310l25,14l20-12l-4-16l-20-12l-22,8l-6,14z", "lat": -17.7134, "lon": 178.065, "radius": 200},
  {"id": "FM", "name": "Micronesia", "d": "M855,245l22,13l18-11l-4-15l-18-10l-20,7l-4,14z", "lat": 7.0897, "lon": 150.1838, "radius": 200},
  {"id": "GU", "name": "Guam", "d": "M845,235l10,6l8-5l-1-7l-8-5l-9,3l-2,6z", "lat": 13.4443, "lon": 144.7937, "radius": 100},
  {"id": "KI", "name": "Kiribati", "d": "M20,320l20,11l16-9l-3-13l-16-9l-18,7l-5,11z", "lat": -3.3704, "lon": -168.734, "radius": 200},
  {"id": "MH", "name": "Marshall Islands", "d": "M850,250l20,11l16-9l-3-13l-16-9l-18,7l-5,11z", "lat": 7.0897, "lon": 171.38, "radius": 200},
  {"id": "MP", "name": "Northern Mariana Islands", "d": "M840,230l12,7l10-5l-2-9l-10-6l-11,4l-3,7z", "lat": 15.2, "lon": 145.75, "radius": 100},
  {"id": "NC", "name": "New Caledonia", "d": "M895,350l25,14l20-12l-4-16l-20-12l-22,8l-6,14z", "lat": -20.9043, "lon": 165.618, "radius": 200},
  {"id": "NF", "name": "Norfolk Island", "d": "M905,365l8,5l6-4l-1-6l-6-4l-7,2l-2,5z", "lat": -29.0408, "lon": 167.9548, "radius": 80},
  {"id": "NZ", "name": "New Zealand", "d": "M920,400l30,18l25-15l-4-20l-25-14l-28,10l-6,16z", "lat": -40.9006, "lon": 174.886, "radius": 400},
  {"id": "PG", "name": "Papua New Guinea", "d": "M850,300l60,35l50-30l-10-38l-50-30l-55,20l-8,32z", "lat": -6.315, "lon": 143.9555, "radius": 400},
  {"id": "PW", "name": "Palau", "d": "M830,240l10,6l8-5l-1-7l-8-5l-9,3l-2,6z", "lat": 7.515, "lon": 134.5825, "radius": 100},
  {"id": "SB", "name": "Solomon Islands", "d": "M875,290l40,22l32-20l-6-26l-32-18l-36,14l-6,20z", "lat": -9.6457, "lon": 160.1562, "radius": 300},
  {"id": "TK", "name": "Tokelau", "d": "M25,340l8,5l6-4l-1-6l-6-4l-7,2l-2,5z", "lat": -8.9674, "lon": -171.8556, "radius": 100},
  {"id": "TO", "name": "Tonga", "d": "M10,345l15,9l12-7l-2-11l-12-7l-14,5l-4,9z", "lat": -21.179, "lon": -175.1982, "radius": 150},
  {"id": "TV", "name": "Tuvalu", "d": "M5,335l8,5l6-4l-1-6l-6-4l-7,2l-2,5z", "lat": -7.1095, "lon": 177.6493, "radius": 100},
  {"id": "VU", "name": "Vanuatu", "d": "M895,335l20,11l16-9l-3-13l-16-9l-18,7l-5,11z", "lat": -15.3767, "lon": 166.9592, "radius": 200},
  {"id": "WF", "name": "Wallis and Futuna", "d": "M0,355l10,6l8-5l-1-7l-8-5l-9,3l-2,6z", "lat": -13.7688, "lon": -177.1569, "radius": 100},
  {"id": "WS", "name": "Samoa", "d": "M15,345l15,9l12-7l-2-11l-12-7l-14,5l-4,9z", "lat": -13.759, "lon": -172.1046, "radius": 150}
]
